City,Lat,Lng,Max Temp,Humidity,Cloudiness,Wind Speed,Country,Date
Saint George,37.1041,-113.5841,293.68,39,0,1.79,US,1665387064
Castro,-24.7911,-50.0119,286.47,98,100,4.01,BR,1665387065
Yellowknife,62.456,-114.3525,281.44,93,75,4.63,CA,1665386878
Port Alfred,-33.5906,26.891,295.47,73,98,3.13,ZA,1665387066
George Town,5.4112,100.3354,305.11,72,20,5.14,MY,1665387028
Coyhaique,-45.5752,-72.0662,279.12,61,75,1.54,CL,1665387067
Nemuro,43.3236,145.575,287.37,93,100,17.81,JP,1665386801
Bredasdorp,-34.5322,20.0403,294.28,60,100,6.12,ZA,1665387067
Bahía Blanca,-38.7196,-62.2724,279.86,49,0,2.65,AR,1665387067
Arraial do Cabo,-22.9661,-42.0278,294.06,96,99,2.91,BR,1665387068
Fairlie,55.756,-4.8556,282.26,90,92,4.92,GB,1665387068
Avarua,-21.2078,-159.775,296.18,78,75,7.72,CK,1665387069
Cape Town,-33.9258,18.4232,294.38,56,0,3.6,ZA,1665386645
Cascavel,-24.9558,-53.4553,289.61,99,100,4.18,BR,1665387069
Taku,39.0211,117.6469,290.13,18,0,5.85,CN,1665387070
Thompson,55.7435,-97.8558,279.24,81,40,2.06,CA,1665387029
Bethel,41.3712,-73.414,281.75,84,0,0.0,US,1665387070
San Fernando del Valle de Catamarca,-28.4696,-65.7852,288.02,19,0,4.47,AR,1665386888
Guerrero Negro,27.9769,-114.0611,294.14,89,11,4.57,MX,1665387071
Ancud,-41.8697,-73.8203,277.28,86,0,1.28,CL,1665387071
Arman',59.7,150.1667,271.0,82,85,1.02,RU,1665387072
Airai,-8.9266,125.4092,296.16,60,100,1.33,TL,1665386915
Cayenne,4.9333,-52.3333,298.17,94,100,1.03,GF,1665387006
Kapaa,22.0752,-159.319,298.14,87,0,3.09,US,1665387073
Bandarbeyla,9.4942,50.8122,303.73,58,15,6.05,SO,1665387073
Souillac,-20.5167,57.5167,298.36,61,40,6.17,MU,1665387074
Bambous Virieux,-20.3428,57.7575,298.29,61,40,6.17,MU,1665387074
Punta Arenas,-53.15,-70.9167,282.21,61,40,12.86,CL,1665387074
Rikitea,-23.1203,-134.9692,295.21,73,0,5.78,PF,1665387075
Murray Bridge,-35.1167,139.2667,294.33,39,64,3.66,AU,1665387075
Tuktoyaktuk,69.4541,-133.0374,274.0,98,100,9.63,CA,1665387076
Punta Gorda,26.9298,-82.0454,298.74,91,100,4.92,US,1665387076
Bam,29.106,58.357,300.46,7,0,3.85,IR,1665387077
Atuona,-9.8,-139.0333,298.17,66,81,8.09,PF,1665387077
Chapais,49.7834,-74.8492,273.03,96,100,3.07,CA,1665387078
Alyangula,-13.8483,136.4192,302.63,60,80,3.6,AU,1665387078
Pangody,65.85,74.4859,279.59,88,100,3.83,RU,1665387078
Vostok,46.4856,135.8833,279.75,91,100,6.95,RU,1665387079
Vila Velha,-20.3297,-40.2925,297.12,88,40,3.09,BR,1665387079
Ushuaia,-54.8,-68.3,280.96,71,40,2.06,AR,1665386844
Olafsvik,64.8945,-23.7142,275.37,62,69,4.86,IS,1665387080
Hermanus,-34.4187,19.2345,291.93,62,100,5.57,ZA,1665387080
Saskylakh,71.9167,114.0833,261.85,93,75,3.4,RU,1665387022
Darbhanga,26.1667,85.9,306.32,53,40,3.74,IN,1665387082
Port Augusta,-32.5,137.7667,295.2,21,100,5.32,AU,1665387082
Labytnangi,66.6572,66.4183,280.53,68,51,6.94,RU,1665387083
Busselton,-33.65,115.3333,288.26,51,22,8.42,AU,1665387083
Barrow,71.2906,-156.7887,272.16,86,75,10.29,US,1665386919
Oruzgan,32.8333,66.0,294.19,5,0,2.67,AF,1665387084
Bay Roberts,47.5999,-53.2648,282.01,93,7,0.89,CA,1665387085
Mataura,-46.1927,168.8643,283.87,78,22,2.24,NZ,1665387085
Lüderitz,-26.6481,15.1594,292.48,66,100,7.03,NA,1665387086
Oranjemund,-28.55,16.4333,294.75,57,100,5.71,NA,1665387086
Muros,42.7762,-9.0603,289.87,96,100,3.43,ES,1665387087
Hilo,19.7297,-155.09,301.64,95,0,1.54,US,1665387087
Padang,-0.9492,100.3543,302.18,68,66,2.61,ID,1665387087
Ixtapa,20.7,-105.2,296.88,81,2,1.54,MX,1665387088
Lebu,-37.6167,-73.65,282.24,84,2,9.0,CL,1665387088
Kaduna,10.5222,7.4383,298.77,73,12,0.36,NG,1665387089
Kalangala,-0.3089,32.225,295.54,66,15,1.7,UG,1665387089
Qaanaaq,77.484,-69.3632,258.49,66,6,3.93,GL,1665387089
Northam,51.0333,-4.2167,284.6,79,0,7.89,GB,1665387090
Albany,42.6001,-73.9662,282.13,93,76,1.2,US,1665386807
Severo-Kuril'sk,50.6789,156.125,280.79,78,71,2.41,RU,1665387090
New Norfolk,-42.7826,147.0587,288.66,56,59,0.45,AU,1665387090
Schaffhausen,47.6973,8.6349,286.9,95,97,0.89,CH,1665387091
Carnarvon,-24.8667,113.6333,294.52,65,96,9.44,AU,1665387091
El Alto,-4.2714,-81.2147,289.6,87,46,5.53,PE,1665387092
Willowmore,-33.2926,23.4895,292.82,48,100,2.01,ZA,1665387092
Domoni,-12.2569,44.5319,300.06,60,24,2.75,KM,1665387092
Morki,56.4303,48.9947,282.88,82,100,2.4,RU,1665387093
Comodoro Rivadavia,-45.8667,-67.5,282.07,49,0,5.66,AR,1665387093
Narsaq,60.9167,-46.05,276.27,98,100,2.23,GL,1665387094
Timrå,62.487,17.3257,284.08,100,0,1.54,SE,1665387094
Nome,64.5011,-165.4064,273.19,70,75,1.54,US,1665387095
Upernavik,72.7868,-56.1549,260.9,73,0,1.73,GL,1665387095
Karratha,-20.7377,116.8463,303.07,34,13,9.93,AU,1665387096
Hobart,-42.8794,147.3294,288.85,74,75,0.51,AU,1665387009
Porto Velho,-8.7619,-63.9039,298.18,83,0,0.51,BR,1665387096
Klaksvík,62.2266,-6.589,279.66,86,96,17.96,FO,1665387096
Leh,34.1667,77.5833,284.46,24,10,2.72,IN,1665387098
Iqaluit,63.7506,-68.5145,270.0,86,100,6.17,CA,1665387014
Cabo San Lucas,22.8909,-109.9124,299.05,78,0,4.44,MX,1665386931
Vaini,-21.2,-175.2,295.24,94,40,2.06,TO,1665387099
Severnyy,50.677,36.5532,283.17,93,100,4.0,RU,1665387099
Saint-Philippe,-21.3585,55.7679,298.92,62,4,5.95,RE,1665387100
Teya,60.3778,92.6267,279.1,95,100,2.81,RU,1665387100
Ust-Nera,64.5667,143.2,264.05,97,100,1.61,RU,1665387100
Tottori-shi,35.5,134.2333,291.19,68,75,4.12,JP,1665386853
Mukhen,48.1,136.1,283.73,71,100,3.53,RU,1665387101
Husavik,66.0449,-17.3389,272.96,95,100,11.97,IS,1665387101
Kiryat Gat,31.61,34.7642,299.14,9,6,0.89,IL,1665386813
Sitka,57.0531,-135.33,285.09,71,75,3.6,US,1665387102
Hailey,43.5196,-114.3153,283.64,57,0,4.12,US,1665387102
Butaritari,3.0707,172.7902,300.4,80,100,5.38,KI,1665387102
East London,-33.0153,27.9116,294.67,73,40,5.66,ZA,1665387103
Nikolskoye,59.7035,30.7861,280.26,70,79,4.01,RU,1665387103
Taoudenni,22.6783,-3.9836,304.45,28,86,10.7,ML,1665387103
Terme,41.2092,36.9739,291.11,82,100,2.72,TR,1665387104
Half Moon Bay,37.4636,-122.4286,288.59,92,100,4.12,US,1665387061
Lagoa,39.05,-27.9833,294.17,89,25,4.03,PT,1665387104
Hithadhoo,-0.6,73.0833,300.4,77,100,7.02,MV,1665387105
Tapejara,-28.0681,-52.0139,282.3,98,100,4.33,BR,1665387105
Oranjestad,12.524,-70.027,299.77,89,20,2.57,AW,1665387105
Tromsø,69.6496,18.957,281.16,81,75,7.2,NO,1665387106
Skjervøy,70.0311,20.9714,278.15,81,100,4.82,NO,1665387106
Khatanga,71.9667,102.5,261.78,95,7,2.04,RU,1665387106
Dikson,73.5069,80.5464,273.9,98,100,10.64,RU,1665387107
Havøysund,70.9963,24.6622,280.28,81,96,7.78,NO,1665387107
Saint Paul Harbor,57.79,-152.4072,280.88,57,75,2.06,US,1665386814
Fortuna,40.5982,-124.1573,285.33,90,100,0.0,US,1665387108
Abu Kamal,34.4506,40.9171,299.66,32,0,3.0,SY,1665387108
Antofagasta,-23.65,-70.4,287.75,84,20,2.3,CL,1665386913
Kloulklubed,7.0419,134.2556,303.43,65,100,3.63,PW,1665387109
Geraldton,-28.7667,114.6,294.38,46,68,7.2,AU,1665387110
Brae,60.3964,-1.353,282.11,74,75,14.77,GB,1665387110
Flinders,-34.5833,150.8552,289.36,67,44,2.68,AU,1665387111
Boralday,43.3578,76.8594,288.07,31,20,3.0,KZ,1665387111
Te Anau,-45.4167,167.7167,281.93,87,67,4.82,NZ,1665387111
Dmitriyevskoye,45.8053,41.8967,294.31,61,61,6.71,RU,1665387112
Safaga,26.7292,33.9365,301.96,41,0,7.04,EG,1665387112
Dzhebariki-Khaya,62.2167,135.8,271.81,98,100,2.52,RU,1665387112
Avera,33.194,-82.5271,286.88,92,0,2.85,US,1665387113
Bathsheba,13.2167,-59.5167,298.49,94,40,3.6,BB,1665387113
Clyde River,70.4692,-68.5914,265.28,86,100,6.17,CA,1665387114
Oussouye,12.485,-16.5469,297.84,90,97,1.78,SN,1665387114
Rosetown,51.5501,-108.0014,278.14,65,100,2.57,CA,1665387114
Plouzané,48.3833,-4.6167,288.33,100,100,5.14,FR,1665387115
Saint-Nazaire,47.2833,-2.2,289.3,95,20,2.57,FR,1665387115
Kahului,20.8947,-156.47,300.16,82,40,2.57,US,1665387116
Hofn,64.2539,-15.2082,275.65,56,98,11.62,IS,1665387116
Atar,20.5169,-13.0499,304.28,34,97,2.5,MR,1665387116
Lompoc,34.6391,-120.4579,289.27,92,100,2.06,US,1665387117
Tayu,-6.5397,111.0518,302.44,70,100,2.8,ID,1665387117
Shelburne,44.0787,-80.2041,280.4,97,97,1.47,CA,1665387117
Gambo,4.6482,22.2633,296.67,87,100,1.05,CF,1665387118
Praia da Vitória,38.7333,-27.0667,294.68,100,75,4.63,PT,1665387118
Coquimbo,-29.9533,-71.3436,286.0,82,100,2.06,CL,1665387118
Srednekolymsk,67.45,153.6833,267.46,65,100,4.46,RU,1665387119
Faanui,-16.4833,-151.75,298.79,75,10,7.85,PF,1665387119
Golden,39.7555,-105.2211,286.36,41,0,2.68,US,1665387120
Leningradskiy,69.3833,178.4167,264.74,75,90,6.88,RU,1665387120
Portland,45.5234,-122.6762,293.73,75,0,0.45,US,1665386870
Okhotsk,59.3833,143.3,271.82,54,35,0.76,RU,1665387120
Binzhou,37.3667,118.0167,287.68,29,0,4.9,CN,1665387121
Nadym,65.5333,72.5167,280.41,84,100,3.6,RU,1665387121
Mahon,39.8885,4.2658,291.46,94,20,2.57,ES,1665387122
Bluff,-46.6,168.3333,287.72,63,63,5.81,NZ,1665387122
Tiksi,71.6872,128.8694,264.99,87,100,4.36,RU,1665387123
Grindavik,63.8424,-22.4338,275.41,75,75,4.63,IS,1665387123
Kyabé,9.4515,18.9449,297.8,79,94,1.61,TD,1665387124
Cherskiy,68.75,161.3,266.35,93,100,6.82,RU,1665387124
Longyearbyen,78.2186,15.6401,274.06,80,75,1.03,SJ,1665387125
Mankera,31.3866,71.4407,306.37,31,0,1.97,PK,1665387125
Ust-Kuyga,70.0167,135.6,260.96,97,80,0.87,RU,1665387126
Itoman,26.1247,127.6694,299.16,75,75,11.32,JP,1665387036
Norman Wells,65.282,-126.8329,283.17,87,75,2.57,CA,1665387126
La Rioja,42.25,-2.5,284.03,62,100,0.3,ES,1665387127
Paso de los Toros,-32.8167,-56.5167,278.61,74,0,3.0,UY,1665387127
Fort Nelson,58.8053,-122.7002,286.92,51,75,2.06,CA,1665387127
Constitución,-35.3333,-72.4167,282.41,70,0,2.52,CL,1665386930
Verkh-Usugli,52.7,115.1667,281.78,37,85,1.56,RU,1665387128
Esperance,-33.8667,121.9,287.06,69,71,11.51,AU,1665387128
Evensk,61.95,159.2333,268.73,75,38,3.47,RU,1665387129
Aden,12.7794,45.0367,303.28,62,5,6.46,YE,1665387129
Port Lincoln,-34.7333,135.8667,290.08,65,100,4.91,AU,1665387130
Kyshtym,55.714,60.5528,287.08,53,34,5.4,RU,1665387130
Katsuura,35.1333,140.3,298.55,88,43,10.79,JP,1665387131
Yulara,-25.2406,130.9889,303.25,11,8,4.29,AU,1665387131
Kuusamo,65.9667,29.1833,278.17,100,100,4.12,FI,1665387132
Dīr,35.2058,71.8756,295.84,38,0,3.3,PK,1665387133
Okha,53.5739,142.9478,277.99,79,6,3.78,RU,1665387133
Mandiana,10.6333,-8.6833,296.89,84,19,1.84,GN,1665387133
Pevek,69.7008,170.3133,269.78,73,100,11.05,RU,1665387134
Arlit,18.7369,7.3853,302.97,17,0,3.23,NE,1665387134
Amapá,1.0,-52.0,295.32,99,100,0.74,BR,1665387135
Departamento de Maldonado,-34.6667,-54.9167,276.81,84,0,1.52,UY,1665387135
Ponta Delgada,37.7333,-25.6667,295.65,88,40,2.57,PT,1665387136
Chokurdakh,70.6333,147.9167,266.24,94,99,5.08,RU,1665387136
Roald,62.5833,6.1333,283.57,71,75,10.29,NO,1665387137
Sur,22.5667,59.5289,304.95,32,7,3.93,OM,1665387137
Hay River,60.8156,-115.7999,287.14,54,75,5.66,CA,1665387137
Węgrów,52.3995,22.0163,280.88,63,14,4.07,PL,1665387138
Sittwe,20.15,92.9,303.37,69,28,5.3,MM,1665387139
Thinadhoo,0.5333,72.9333,301.0,74,13,7.04,MV,1665387139
Saldanha,-33.0117,17.9442,294.18,48,100,2.67,ZA,1665387139
Marsh Harbour,26.5412,-77.0636,300.71,76,18,4.67,BS,1665387140
Jalu,29.0331,21.5482,297.29,39,0,1.78,LY,1665387140
Ola,59.5833,151.2833,273.01,78,87,3.19,RU,1665387140
Torbay,47.6666,-52.7314,281.63,89,75,4.12,CA,1665387141
Noshiro,40.2039,140.0242,291.61,94,100,7.34,JP,1665386970
Sainte-Suzanne,-20.9061,55.6089,299.27,65,0,9.77,RE,1665387141
Nanortalik,60.1432,-45.2371,276.97,85,100,2.27,GL,1665387142
Tasiilaq,65.6145,-37.6368,270.61,88,100,2.71,GL,1665387142
Abu Dhabi,24.4667,54.3667,309.21,17,0,1.03,AE,1665386916
Chumikan,54.7183,135.315,277.25,53,6,5.14,RU,1665387143
Kenai,60.5544,-151.2583,277.18,63,0,3.6,US,1665387143
Sinnamary,5.3833,-52.95,298.79,91,84,3.55,GF,1665387143
Buala,-8.145,159.5921,300.63,75,81,1.22,SB,1665387144
Anadyr,64.75,177.4833,267.43,73,0,2.0,RU,1665387144
Laas,46.6166,10.7002,286.64,84,93,1.17,IT,1665387144
Katete,-0.7818,29.7544,299.17,47,68,1.4,UG,1665387145
Sola,-13.8833,167.55,300.22,74,27,3.46,VU,1665387145
Ucluelet,48.9329,-125.5528,284.31,90,61,1.08,CA,1665387029
Coari,-4.085,-63.1414,299.16,56,100,1.51,BR,1665387146
Los Llanos de Aridane,28.6585,-17.9182,293.01,85,75,5.66,ES,1665387146
Bavleny,56.4,39.56,282.54,67,39,5.25,RU,1665387147
Fort Smith,35.3859,-94.3986,288.9,80,0,0.0,US,1665387133
Tagusao,9.1924,117.8141,301.36,76,100,4.0,PH,1665387147
Jamestown,42.097,-79.2353,284.1,49,100,3.6,US,1665387147
San Patricio,28.017,-97.5169,299.17,66,2,2.82,US,1665387148
Santa Isabel Rio Negro,-0.4139,-65.0192,296.38,85,100,0.95,BR,1665387148
Mount Gambier,-37.8333,140.7667,286.99,70,100,1.57,AU,1665387121
Kaitangata,-46.2817,169.8464,287.4,59,100,4.11,NZ,1665386927
Burē,10.7,37.0667,291.38,80,42,1.36,ET,1665387149
Petropavlovsk-Kamchatskiy,53.0452,158.6483,277.48,52,20,5.0,RU,1665387149
North Bend,43.4065,-124.2243,285.33,97,100,2.06,US,1665387028
Mabaruma,8.2,-59.7833,296.46,98,99,1.1,GY,1665387150
Aksu,41.1231,80.2644,293.54,20,100,1.04,CN,1665387150
Provideniya,64.3833,-173.3,272.75,68,56,4.62,RU,1665387151
Gweta,-20.1833,25.2333,305.19,13,0,6.34,BW,1665387151
Bobrovka,54.047,61.7455,288.86,41,42,4.82,RU,1665387151
Jaguaquara,-13.5306,-39.9708,289.68,97,12,1.04,BR,1665387152
Cockburn Town,21.4612,-71.1419,301.11,76,46,8.12,TC,1665387152
Tarbagatay,51.4803,107.3602,283.89,26,94,2.94,RU,1665387153
Manturovo,58.3353,44.7619,282.87,68,100,2.63,RU,1665387153
Reporoa,-38.4333,176.35,285.05,99,51,1.35,NZ,1665387153
Chui,-33.6971,-53.4616,279.4,81,1,1.64,UY,1665387154
Shaunavon,49.6501,-108.4181,282.03,55,28,2.79,CA,1665387154
Killarney,52.05,-9.5167,281.18,93,20,1.03,IE,1665387155
Ponta do Sol,32.6667,-17.1,293.55,77,81,1.2,PT,1665387155
San Quintín,30.4833,-115.95,293.18,90,33,4.3,MX,1665387155
Loma Alta,15.3967,-88.5597,294.18,100,100,0.53,HN,1665387156
Hidalgo,20.5,-99.0,284.69,98,97,1.22,MX,1665387156
Koubia,11.5833,-11.9,293.96,90,84,0.41,GN,1665387156
Ōhara,35.25,140.3833,298.39,87,38,10.47,JP,1665387157
Adrar,20.5022,-10.0711,302.46,29,49,8.17,MR,1665387157
Tuatapere,-46.1333,167.6833,286.04,59,0,6.93,NZ,1665387158
Havre-St-Pierre,50.2334,-63.5986,277.15,93,0,4.63,CA,1665387159
Forsytheganj,52.6333,29.7333,282.72,70,0,4.19,BY,1665387159
Alofi,-19.0595,-169.9187,296.09,94,100,9.51,NU,1665387159
Hong Kong,22.2855,114.1577,301.58,50,99,5.81,HK,1665387160
Vestmannaeyjar,63.4427,-20.2734,275.7,69,0,8.75,IS,1665387160
Phibun Mangsahan,15.2447,105.2291,301.14,85,100,6.3,TH,1665387161
Uvinza,-5.1036,30.3911,304.43,26,14,4.27,TZ,1665387161
Burgeo,47.6167,-57.6152,282.07,75,80,9.59,CA,1665387028
Miquelon,47.0975,-56.3814,284.15,69,9,11.66,PM,1665387161
Mar del Plata,-38.0023,-57.5575,279.19,87,0,1.34,AR,1665387162
Shimoda,34.6667,138.95,298.35,89,61,6.86,JP,1665387162
Serebryansk,49.6925,83.2892,280.03,77,95,3.97,KZ,1665387163
Ocampo,21.65,-101.5,283.85,92,22,5.12,MX,1665387163
Bengkulu,-3.8004,102.2655,301.13,68,47,2.65,ID,1665387163
Dingle,10.9995,122.6711,301.95,76,90,1.9,PH,1665387164
Visby,57.6409,18.296,285.96,87,40,3.6,SE,1665387164
Ondjiva,-17.0667,15.7333,298.17,29,0,3.09,AO,1665387165
Hambantota,6.1241,81.1185,306.34,62,75,3.6,LK,1665387165
Mayor Pablo Lagerenza,-19.9309,-60.7718,288.3,46,95,1.96,PY,1665387166
Bonnyville,54.2668,-110.735,283.04,52,1,4.42,CA,1665387166
Río Gallegos,-51.6226,-69.2181,281.18,46,0,4.12,AR,1665387166
Prince George,53.9166,-122.753,286.27,72,40,4.63,CA,1665387029
Jinchang,38.4953,102.1739,286.17,13,0,2.37,CN,1665387167
Lorengau,-2.0226,147.2712,300.67,68,27,3.95,PG,1665387167
Kirkwall,58.9848,-2.9587,283.13,71,40,9.77,GB,1665387167
Itarema,-2.9248,-39.9167,298.2,83,35,6.38,BR,1665387168
La Ciotat,43.1748,5.6045,292.08,72,0,2.37,FR,1665387169
Grand Gaube,-20.0064,57.6608,298.37,60,0,2.68,MU,1665387169
Loa Janan,-0.583,117.095,296.38,98,100,1.35,ID,1665387170
Port Moresby,-9.4431,147.1797,302.83,74,40,5.14,PG,1665387170
Zyryanka,65.75,150.85,265.0,87,100,2.17,RU,1665387170
Isla Mujeres,21.2311,-86.731,300.18,81,66,5.95,MX,1665387171
Laguna,38.421,-121.4238,294.61,72,0,3.09,US,1665387171
Solnechnyy,50.7214,136.6319,277.79,81,9,1.65,RU,1665387172
Onguday,50.75,86.15,281.86,58,100,1.59,RU,1665387172
Talnakh,69.4865,88.3972,276.6,99,100,6.86,RU,1665387172
Narganá,9.4428,-78.5906,298.69,85,84,3.31,PA,1665387173
Marquette,46.5333,-87.6335,273.35,85,84,1.07,US,1665387173
Necochea,-38.5473,-58.7368,276.44,89,0,3.74,AR,1665387174
Port Hawkesbury,45.6169,-61.3485,281.81,87,75,4.47,CA,1665387174
Humberto de Campos,-2.5983,-43.4611,298.81,82,95,4.8,BR,1665387175
Aripuanã,-9.1667,-60.6333,297.79,73,96,1.3,BR,1665387175
Teshie,5.5836,-0.1072,297.46,94,78,0.0,GH,1665387175
Fairbanks,64.8378,-147.7164,274.13,89,100,5.66,US,1665386889
Eyl,7.9803,49.8164,305.42,48,69,6.93,SO,1665387176
San Juan,-31.5375,-68.5364,286.27,22,0,2.62,AR,1665387176
Pisco,-13.7,-76.2167,288.18,82,0,2.57,PE,1665387177
Bell Ville,-32.6259,-62.6887,281.31,32,1,3.48,AR,1665387177
Cradock,-32.1642,25.6192,296.19,45,67,2.48,ZA,1665387178
Kayes,14.0,-11.0,299.25,78,45,1.08,ML,1665387178
Galle,6.0367,80.217,301.29,73,19,5.3,LK,1665387179
Kailua,21.4022,-157.7394,299.14,85,34,0.63,US,1665387171
Ugoofaaru,5.6667,73.0,300.22,82,77,7.5,MV,1665387180
Andros Town,24.7,-77.7667,300.13,74,10,6.53,BS,1665387180
Buchanan,5.8808,-10.0467,298.13,87,100,1.88,LR,1665387180
Chippewa Falls,44.9369,-91.3929,281.58,84,0,1.54,US,1665387181
Viseu,40.661,-7.9097,285.85,88,100,0.4,PT,1665386925
Zolotukhino,52.0842,36.3772,282.19,76,98,7.46,RU,1665387181
Pangnirtung,66.1451,-65.7125,270.15,68,100,1.03,CA,1665387182
Portel,-1.9356,-50.8211,295.77,97,84,1.51,BR,1665387182
Vernon,50.2581,-119.2691,286.09,67,82,3.6,CA,1665387125
Mosquera,4.7059,-74.2302,283.2,93,20,1.03,CO,1665387182
Nur-Sultan,51.1801,71.446,283.12,53,75,4.0,KZ,1665387162
Puerto Ayora,-0.7393,-90.3518,292.34,90,68,0.89,EC,1665387183
Saint Anthony,45.0205,-93.218,283.05,78,0,2.06,US,1665387183
Ngaoundéré,7.3167,13.5833,293.09,94,40,1.03,CM,1665387184
Batticaloa,7.7102,81.6924,302.34,67,28,4.08,LK,1665387184
Hwange,-18.3693,26.5019,305.18,14,0,4.16,ZW,1665387185
Oktyabr'skoye,43.0645,44.7417,289.23,94,100,2.0,RU,1665387185
Abrau-Dyurso,44.69,37.59,289.85,82,100,6.12,RU,1665387185
Lowestoft,52.4752,1.7516,285.07,92,100,4.62,GB,1665387186
Fengrun,39.8333,118.1167,289.74,17,0,3.66,CN,1665387186
Whitehorse,60.7161,-135.0538,279.58,55,100,5.14,CA,1665386927
Nyurba,63.2842,118.3319,272.97,89,100,2.64,RU,1665387187
Bradford,53.7939,-1.7521,282.07,94,20,6.17,GB,1665386956
Tskaltubo,42.3254,42.5979,288.67,94,100,1.54,GE,1665387187
Zlobin,45.2924,14.6541,286.76,68,20,3.6,HR,1665387188
Port-Gentil,-0.7193,8.7815,299.13,89,75,5.66,GA,1665387188
Pahrump,36.2083,-115.9839,296.01,34,1,2.05,US,1665387189
Sandwick,60.0,-1.25,283.05,71,40,15.43,GB,1665387189
Pacific Grove,36.6177,-121.9166,287.23,93,100,2.06,US,1665387190
Bereslavka,48.6254,44.0449,285.58,85,100,5.87,RU,1665387190
Walvis Bay,-22.9575,14.5053,288.68,88,40,1.54,NA,1665387190
Kupang,-10.1667,123.5833,303.47,79,75,4.63,ID,1665387191
Smithers,54.7804,-127.1743,291.33,48,100,5.66,CA,1665387191
Yangi Marg`ilon,40.4272,71.7189,294.55,24,0,3.09,UZ,1665387192
Cassilândia,-19.1133,-51.7342,293.94,90,100,0.93,BR,1665387192
Bull Savanna,17.8868,-77.5902,297.37,87,42,3.67,JM,1665387192
Baiyin,36.5583,104.2081,286.79,21,93,4.44,CN,1665387193
Pacifica,37.6138,-122.4869,288.79,95,40,4.12,US,1665387181
Ahipara,-35.1667,173.1667,286.54,84,99,3.04,NZ,1665387193
Nouakchott,18.0858,-15.9785,296.11,69,99,2.74,MR,1665387194
Chinsali,-10.5414,32.0816,301.61,20,5,4.27,ZM,1665387194
Porto-Novo,6.4965,2.6036,298.05,83,100,0.7,BJ,1665387194
Algiers,36.7525,3.042,292.05,77,0,1.03,DZ,1665387195
Toda Raisingh,26.0252,75.4849,304.79,46,54,1.02,IN,1665387195
Enköping,59.6361,17.0777,282.21,78,6,5.67,SE,1665387196
Dondo,-19.6094,34.7431,300.88,35,0,2.33,MZ,1665387196
Dakar,14.6937,-17.4441,298.22,94,40,2.06,SN,1665387196
Bintulu,3.1667,113.0333,303.38,74,20,3.13,MY,1665387197
San Luis,-33.295,-66.3356,283.44,22,0,4.13,AR,1665386908
Igarka,67.4667,86.5833,276.09,97,100,8.47,RU,1665387198
Kulhudhuffushi,6.6221,73.07,300.46,81,25,7.82,MV,1665387198
Notre-Dame-du-Lac,47.6136,-68.7964,271.97,94,71,1.52,CA,1665387198
Yar-Sale,66.8333,70.8333,279.83,84,99,5.6,RU,1665387199
Kyren,51.6828,102.1408,284.91,48,100,0.55,RU,1665387199
São Filipe,14.8961,-24.4956,298.49,74,15,3.59,CV,1665387200
Herat Province,34.5,62.0,295.8,8,0,1.34,AF,1665387200
Vardø,70.3705,31.1107,279.14,75,0,5.14,NO,1665387200
Vilhena,-12.7406,-60.1458,292.63,97,78,2.18,BR,1665387074
Rawson,-43.3002,-65.1023,285.37,32,0,9.01,AR,1665387201
Gwadar,25.1216,62.3254,305.1,25,0,0.58,PK,1665387202
Diego de Almagro,-26.3667,-70.05,282.58,56,0,0.11,CL,1665387088
Luancheng,37.8792,114.6517,294.24,13,0,0.52,CN,1665387202
Pemangkat,1.1667,108.9667,299.29,82,88,2.76,ID,1665387202
Lockhart,28.6194,-81.4426,296.45,91,0,2.57,US,1665387203
Victor Harbor,-35.5667,138.6167,293.15,46,94,1.08,AU,1665387203
Aswān,24.0934,32.907,303.85,23,0,5.75,EG,1665387204
Le Port,-20.9373,55.2919,299.15,59,30,1.38,RE,1665387204
Bishoftu,8.75,38.9833,292.78,53,20,4.36,ET,1665387204
Shubarshi,48.5872,57.1869,290.76,26,6,7.1,KZ,1665387205
Muravlenko,63.7898,74.523,278.61,95,100,5.92,RU,1665387205
Ovsyanka,55.9575,92.5519,286.69,63,95,6.52,RU,1665387205
Humaitá,-7.5061,-63.0208,298.6,65,100,1.38,BR,1665387206
Port Hedland,-20.3167,118.5667,304.18,40,96,8.23,AU,1665387206
Taksimo,56.3444,114.8794,279.0,58,73,0.7,RU,1665387206
Midwest City,35.4495,-97.3967,291.85,78,75,4.12,US,1665387169
Manono,-7.3,27.4167,306.86,18,11,2.18,CD,1665387207
Zonguldak,41.25,31.8333,284.62,66,61,0.24,TR,1665387207
Gīdam,18.9833,81.4,304.03,57,93,1.02,IN,1665387208
Jamame,0.0722,42.7506,303.49,49,31,6.58,SO,1665387208
Sisimiut,66.9395,-53.6735,270.13,64,100,2.14,GL,1665387209
Tabuk,17.4189,121.4443,296.36,93,100,5.04,PH,1665387209
Port Blair,11.6667,92.75,301.17,74,75,4.12,IN,1665387196
Lavrentiya,65.5833,-171.0,271.75,63,4,4.2,RU,1665387209
Malibu,34.005,-118.8101,294.0,94,19,0.67,US,1665386941
Carroll,39.5501,-77.0164,281.63,82,0,0.89,US,1665387083
Berdigestyakh,62.0989,126.6992,273.82,99,100,1.48,RU,1665387210
Camacha,33.0833,-16.3333,291.83,88,20,5.14,PT,1665387210
Naze,28.3667,129.4833,294.66,65,100,8.93,JP,1665387211
Nyrob,60.733,56.7202,280.9,89,100,2.08,RU,1665387211
Wanaka,-44.7,169.15,279.51,97,89,3.41,NZ,1665387212
Lodwar,3.1191,35.5973,304.09,35,27,7.36,KE,1665387212
Nālūt,30.3333,10.85,299.28,22,3,4.09,LY,1665387213
Cidreira,-30.1811,-50.2056,287.26,60,100,3.83,BR,1665387213
Valera,9.3178,-70.6036,293.97,82,98,1.9,VE,1665387213
Tikhvin,59.6451,33.5294,282.03,72,10,3.56,RU,1665387205
Lengshuitan,26.4111,111.5956,296.02,14,25,5.59,CN,1665387214
Kathu,7.9178,98.3332,302.42,99,100,1.93,TH,1665387214
Bowen,-20.0167,148.2333,297.84,75,0,8.57,AU,1665387215
Saint-Augustin,51.226,-58.6502,276.98,88,99,3.08,CA,1665387215
Sioux Lookout,50.1001,-91.917,274.19,100,75,2.57,CA,1665387215
Saint-Vallier,46.6411,4.3711,281.55,80,68,0.72,FR,1665387216
Daniel Flores,9.3355,-83.6694,293.49,93,100,0.77,CR,1665387216
General Pico,-35.6566,-63.7568,279.53,30,0,3.42,AR,1665387083
Indramayu,-6.3264,108.32,301.8,71,97,4.58,ID,1665387216
Calamar,10.2511,-74.9146,296.78,90,100,2.09,CO,1665387217
Nishihara,26.1842,127.7558,298.75,79,75,11.32,JP,1665387217
Emerald,-23.5333,148.1667,298.9,53,84,4.92,AU,1665387218
Maracaibo,10.6317,-71.6406,296.96,92,94,1.88,VE,1665387218
Syracuse,37.0881,15.2792,293.92,77,100,5.1,IT,1665387086
Cam Ranh,11.9214,109.1591,303.13,62,40,2.06,VN,1665387029
Bar Bigha,25.2167,85.7333,306.76,52,7,3.84,IN,1665387219
Poselki,53.1324,46.5031,286.14,57,100,3.91,RU,1665387219
Puri,19.8,85.85,304.44,71,97,3.35,IN,1665387219
Mattru,7.6244,-11.8332,295.74,97,100,1.02,SL,1665387219
Kaura Namoda,12.5898,6.5779,301.79,49,6,0.82,NG,1665387220
Waslala,13.2333,-85.3833,294.24,98,100,0.44,NI,1665387220
Bemidji,47.4736,-94.8803,278.66,100,0,0.0,US,1665387221
Port Elizabeth,-33.918,25.5701,295.98,78,20,6.69,ZA,1665387221
Goderich,43.7501,-81.7165,284.77,93,100,1.03,CA,1665387029
Qaqortoq,60.7167,-46.0333,275.94,93,100,3.09,GL,1665387222
Churapcha,62.0025,132.4325,272.76,99,100,1.55,RU,1665387222
Hualmay,-11.0964,-77.6139,289.15,88,98,2.95,PE,1665387223
Puerto Maldonado,-12.6,-69.1833,294.8,97,33,0.04,PE,1665387223
Whitehaven,54.549,-3.5841,282.96,100,25,2.24,GB,1665387223
Diffa,13.3154,12.6113,306.16,19,5,7.77,NE,1665387224
Yining,29.0361,114.5636,293.3,23,10,2.26,CN,1665387224
Dunedin,-45.8742,170.5036,285.3,76,100,4.43,NZ,1665387019
Auki,-8.7676,160.7034,299.37,81,70,0.81,SB,1665387225
Quelimane,-17.8786,36.8883,301.12,69,0,2.06,MZ,1665387225
Chicama,-7.8447,-79.1469,287.45,88,98,1.68,PE,1665387226
Korla,41.7597,86.1469,293.89,18,7,4.83,CN,1665387226
Sayhāt,26.4852,50.0405,308.26,26,0,1.15,SA,1665387226
Weligama,5.9667,80.4167,302.4,67,7,5.51,LK,1665387227
Suntar,62.1444,117.6319,274.33,96,100,2.35,RU,1665387227
Barra de Tecoanapa,16.5167,-98.75,298.27,84,81,1.88,MX,1665387228
Haines Junction,60.7522,-137.5108,276.12,87,100,1.03,CA,1665387228
Prykolotne,50.1604,37.3474,283.15,92,100,4.85,UA,1665387228
Catuday,16.2923,119.8062,301.31,66,49,3.34,PH,1665387229
Mahébourg,-20.4081,57.7,298.31,61,40,6.17,MU,1665387229
Kruisfontein,-34.0033,24.7314,294.75,44,100,6.68,ZA,1665387229
Balakhninskiy,58.0106,114.2769,277.28,96,100,0.76,RU,1665387230
Rocha,-34.4833,-54.3333,277.81,86,0,0.98,UY,1665387230
Ambilobe,-13.2,49.05,303.24,38,44,6.22,MG,1665387230
Yatou,37.15,122.3833,284.59,61,98,10.93,CN,1665387231
Ongandjera,-17.8833,15.0667,303.19,11,3,4.72,NA,1665387231
Bayan,46.0833,127.4,282.56,66,100,7.52,CN,1665387231
Bitung,1.4451,125.1824,300.62,76,99,0.79,ID,1665387232
Port Hardy,50.6996,-127.4199,282.25,100,100,1.03,CA,1665387028
Ilulissat,69.2167,-51.1,265.16,73,75,1.54,GL,1665387232
Amazar,53.858,120.875,279.6,50,63,1.81,RU,1665387232
Iracoubo,5.4802,-53.2011,298.85,91,88,3.56,GF,1665387233
Oktyabr'skiy,54.4815,53.471,287.07,48,100,5.31,RU,1665387233
Wattegama,6.7989,81.4808,304.12,56,83,1.77,LK,1665387234
Wahiawā,21.5028,-158.0236,297.33,76,0,0.0,US,1665387234
Bondoukou,8.0333,-2.8,296.54,88,35,1.06,CI,1665387234
Kaseda-shirakame,31.4167,130.3167,292.44,65,100,8.87,JP,1665387235
Kaiyuan,23.6977,103.3037,290.8,64,88,1.47,CN,1665387235
Sechura,-5.5569,-80.8222,289.93,87,39,3.1,PE,1665387236
Callaway,30.153,-85.5699,292.58,58,0,3.6,US,1665387068
Cairns,-16.9167,145.7667,301.52,71,100,6.69,AU,1665387236
Almeirim,-1.5233,-52.5817,295.21,93,70,1.96,BR,1665387237
Nivala,63.9167,24.9667,280.2,81,100,4.63,FI,1665387237
Grosse Pointe Farms,42.4092,-82.8919,286.48,76,100,3.09,US,1665387237
Yibin,28.7667,104.6238,288.52,79,100,0.69,CN,1665387238
Sangar,63.9242,127.4739,271.96,88,100,2.43,RU,1665387238
Dawlatabad,36.4141,64.9053,297.88,11,0,2.73,AF,1665387238
Abilene,32.4487,-99.7331,291.91,86,20,3.09,US,1665387239
Tupiza,-21.45,-65.7167,277.74,12,0,2.68,BO,1665387239
Weihe,32.9952,105.3247,284.68,62,100,2.27,CN,1665387240
Were Īlu,10.6,39.4333,289.2,57,45,3.84,ET,1665387240
Bourail,-21.5667,165.4833,297.11,68,78,2.61,NC,1665387241
Ribeira Grande,38.5167,-28.7,294.37,88,20,2.06,PT,1665387241
Buraidah,26.326,43.975,304.4,9,0,4.87,SA,1665387241
Zeya,53.75,127.2667,276.93,57,98,1.17,RU,1665387242
Shiyan,32.6475,110.7781,292.27,40,100,1.46,CN,1665387242
Biak,-0.9131,122.8766,300.12,79,82,1.85,ID,1665387243
Kieta,-6.2167,155.6333,299.63,76,17,0.97,PG,1665387243
Seydi,39.4816,62.9137,296.86,15,0,4.8,TM,1665387244
Puerto del Rosario,28.5004,-13.8627,295.01,78,75,6.17,ES,1665387245
Noyabrsk,63.1994,75.4507,279.15,93,100,6.51,RU,1665387245
Kuruman,-27.4524,23.4325,302.03,12,40,7.98,ZA,1665387246
Aklavik,68.2191,-135.0107,273.53,97,100,12.61,CA,1665387246
Rantauprapat,2.1,99.8333,302.33,74,100,0.38,ID,1665387247
Tacuarembó,-31.7333,-55.9833,277.2,85,0,1.56,UY,1665387247
Vila Franca do Campo,37.7167,-25.4333,295.48,91,49,2.21,PT,1665387248
Codrington,-38.2667,141.9667,287.72,74,100,3.93,AU,1665387248
Launceston,-41.45,147.1667,287.95,67,100,7.2,AU,1665387133
Kamaishi,39.2667,141.8833,292.79,92,55,2.7,JP,1665387249
San Miguel de Tucumán,-26.8241,-65.2226,277.15,65,0,1.54,AR,1665387249
Hammerfest,70.6634,23.6821,279.4,81,75,2.06,NO,1665387250
Boende,-0.2167,20.8667,300.85,67,90,1.98,CD,1665387250
Roshchino,60.2519,29.6085,282.44,82,99,5.44,RU,1665387250
Diré,12.2833,-10.9667,296.61,90,85,0.92,ML,1665387251
Cobija,-11.0267,-68.7692,295.05,94,73,0.56,BO,1665387213
West Bay,19.3667,-81.4167,300.97,85,97,1.34,KY,1665387251
Bonfim,3.0833,-59.95,298.62,72,90,3.07,BR,1665387252
Khani,41.9563,42.9566,284.91,87,88,1.16,GE,1665387252
Mocuba,-16.8392,36.9856,307.56,25,0,3.13,MZ,1665387253
Safi,32.2994,-9.2372,293.63,79,100,2.98,MA,1665387253
Santa Fe,-31.6333,-60.7,282.58,68,85,0.45,AR,1665387025
Aberdeen,57.1437,-2.0981,282.87,76,3,4.12,GB,1665387061
Lake Havasu City,34.4839,-114.3224,300.49,36,0,1.54,US,1665387254
Sistranda,63.7256,8.834,286.13,80,100,11.17,NO,1665387254
Isangel,-19.55,169.2667,296.95,78,30,6.3,VU,1665387250
Mossamedes,-15.1961,12.1522,295.52,72,3,2.05,AO,1665387254
Soure,-0.7167,-48.5233,300.15,79,61,4.84,BR,1665387255
Yelizovo,53.1873,158.3805,278.23,52,20,5.0,RU,1665387256
Xining,36.6167,101.7667,288.33,19,0,2.26,CN,1665387256
Kasongo-Lunda,-6.4667,16.8167,302.12,59,41,0.38,CD,1665387256
Salalah,17.0151,54.0924,303.2,42,0,2.06,OM,1665387257
Makkah al Mukarramah,21.4267,39.8261,309.65,22,0,3.38,SA,1665387257
Anloga,5.7947,0.8973,299.69,77,88,2.7,GH,1665387258
Victoria Point,-27.5833,153.3,293.23,70,99,2.24,AU,1665387258
Innisfail,-17.5333,146.0333,297.36,81,85,3.31,AU,1665387258
São Geraldo do Araguaia,-6.4006,-48.555,297.36,82,99,0.88,BR,1665387259
Alihe,50.5667,123.7167,280.31,39,3,0.75,CN,1665387259
Ayan,56.45,138.1667,276.71,56,14,3.3,RU,1665387259
Semporna,4.4818,118.6112,301.23,76,100,1.44,MY,1665387260
Madimba,-10.4,40.3333,297.77,78,75,5.14,TZ,1665387260
Ocós,14.5094,-92.1933,300.25,79,100,1.97,GT,1665387260
Maragogi,-9.0122,-35.2225,297.2,88,99,3.92,BR,1665387261
São Miguel do Araguaia,-13.275,-50.1628,296.4,74,89,2.49,BR,1665387261
Ichinohe,40.2069,141.3017,289.52,98,94,2.81,JP,1665387262
Gorontalo,0.5412,123.0595,299.27,90,100,0.59,ID,1665387262
Nuevo Progreso,23.1667,-97.95,295.63,80,73,2.13,MX,1665387262
Akhtubinsk,48.2795,46.1722,287.83,61,100,5.5,RU,1665387263
Savannah Bight,16.45,-85.85,299.86,84,100,11.96,HN,1665387263
Fomboni,-12.28,43.7425,298.82,58,1,1.85,KM,1665387264
Christchurch,-43.5333,172.6333,290.32,47,100,7.72,NZ,1665387003
San Lazaro,18.0387,-88.6622,296.22,99,100,1.81,BZ,1665387264
Ketchikan,55.3422,-131.6461,286.14,87,20,3.09,US,1665387265
Moose Factory,51.2585,-80.6094,273.15,93,20,4.63,CA,1665387265
Lata,40.1629,-8.3327,290.27,72,88,0.99,PT,1665387266
Hyères,43.1167,6.1167,292.01,77,75,2.06,FR,1665387266
Vao,-22.6667,167.4833,295.8,74,23,9.58,NC,1665387267
Gizo Government Station,-8.103,156.8419,301.09,71,26,0.99,SB,1665387267
Kropotkin,45.4375,40.5756,289.34,91,99,5.52,RU,1665387268
Mo i Rana,66.3128,14.1428,279.44,95,75,1.54,NO,1665387268
Kudahuvadhoo,2.6708,72.8944,300.8,75,16,7.58,MV,1665387268
Kasempa,-13.4584,25.8338,302.98,17,0,4.89,ZM,1665387269
Aleksandrov Gay,50.147,48.5704,288.99,38,100,7.68,RU,1665387269
Ovalle,-30.5983,-71.2003,284.35,83,0,0.66,CL,1665387269
Mago,53.2514,140.1822,276.47,69,6,1.16,RU,1665387270
Araouane,18.9048,-3.5265,305.76,15,66,3.65,ML,1665387270
Banjar,-8.19,114.9675,301.64,80,100,1.08,ID,1665387271
Tonantins,-2.8731,-67.8022,295.43,91,95,0.94,BR,1665387271
Beloha,-25.1667,45.05,306.73,33,0,4.34,MG,1665387272
Ţahţā,26.7693,31.5021,300.52,35,0,7.65,EG,1665387272
Beringovskiy,63.05,179.3167,273.62,51,25,2.3,RU,1665387272
Ierapetra,35.01,25.7353,296.01,58,0,4.02,GR,1665387272
Rwamagana,-1.9487,30.4347,296.84,44,80,1.08,RW,1665387273
Virginia Beach,36.8529,-75.978,285.38,79,40,0.0,US,1665386893
Vikhorevka,56.1201,101.1636,284.92,72,67,3.37,RU,1665387273
Tura,25.5198,90.2201,301.22,73,56,2.05,IN,1665387274
Rincon,32.296,-81.2354,294.18,96,20,1.54,US,1665387274
Kununurra,-15.7667,128.7333,311.14,22,22,2.57,AU,1665387015
San Cristobal,7.7669,-72.225,290.69,97,91,0.65,VE,1665387119
Dzaoudzi,-12.7887,45.2699,301.09,65,100,1.03,YT,1665387275
Alamosa,37.4695,-105.87,275.14,87,0,2.57,US,1665387275
Casper,42.8666,-106.3131,277.48,56,75,4.12,US,1665387275
Shaoguan,24.8,113.5833,299.75,29,8,3.33,CN,1665387276
Cherepovets,59.1333,37.9,275.05,100,100,2.0,RU,1665387130
Xingyi,24.1877,102.817,285.52,80,100,1.16,CN,1665387276
Rome,43.2128,-75.4557,283.63,88,100,2.06,US,1665386999
Baracoa,20.3467,-74.4958,299.04,88,79,3.35,CU,1665387277
Broome,42.2506,-75.833,281.03,87,58,1.66,US,1665387277
Östersund,63.1792,14.6357,282.93,71,40,3.6,SE,1665387139
Matagami,49.7502,-77.6328,274.21,93,100,2.06,CA,1665387158
Richards Bay,-28.783,32.0377,298.07,56,73,4.65,ZA,1665387278
El Salvador,13.8333,-88.9167,294.37,99,100,1.14,SV,1665387158
